Station Code,Station ID,Chinese Name,English Name,Latitude,Longitude
ADM,2,金鐘,Admiralty,22.2788,114.1646
AIR,47,機場,Airport,22.316,113.9366
AWE,56,博覽館,AsiaWorld-Expo,22.3219881,113.9422214
AUS,111,柯士甸,Austin,22.3042356,114.1666014
CAB,28,銅鑼灣,Causeway Bay,22.2802,114.1835
CEN,1,中環,Central,22.282,114.1576
CHW,37,柴灣,Chai Wan,22.2644,114.2368
CKT,96,車公廟,Che Kung Temple,22.3748,114.1861
CSW,18,長沙灣,Cheung Sha Wan,22.3355066,114.1561596
CHH,12,彩虹,Choi Hung,22.3348,114.2089
CIO,98,第一城,City One,22.3828,114.2035
DIH,11,鑽石山,Diamond Hill,22.3401,114.2016
DIS,55,迪士尼,Disneyland Resort,22.3155,114.0451
ETS,80,尖東,East Tsim Sha Tsui,22.2955,114.1754
FAN,74,粉嶺,Fanling,22.4921,114.1387
FOT,69,火炭,Fo Tan,22.3953,114.1982
FOH,30,炮台山,Fortress Hill,22.2875631,114.1933149
HAH,51,坑口,Hang Hau,22.3155626,114.2644436
HFC,36,杏花邨,Heng Fa Chuen,22.2766726,114.2397196
HEO,101,恆安,Heng On,22.4174,114.2258
HIK,90,顯徑,Hin Keng,22.364,114.1708
HKU,82,香港大學,HKU,22.2839758,114.1355067
HOM,84,何文田,Ho Man Tin,22.3093,114.1829
HOK,39,香港,Hong Kong,22.2644535,114.237044
HUH,64,紅磡,Hung Hom,22.3029,114.1816
JOR,4,佐敦,Jordan,22.3049,114.1718
KAT,91,啟德,Kai Tak,22.3304,114.1994
KSR,115,錦上路,Kam Sheung Road,22.4348,114.0634
KET,83,堅尼地城,Kennedy Town,22.2812252,114.1283812
KOW,40,九龍,Kowloon,22.3049,114.1615
KOB,13,九龍灣,Kowloon Bay,22.3235,114.2141
KOT,8,九龍塘,Kowloon Tong,22.3370021,114.1758588
KWF,22,葵芳,Kwai Fong,22.3569,114.1279
KWH,23,葵興,Kwai Hing,22.3632,114.1312
KWT,15,觀塘,Kwun Tong,22.3121,114.2265
LCK,19,茘枝角,Lai Chi Kok,22.3373,114.1482
LAK,21,茘景,Lai King,22.3484,114.1261
LAT,38,藍田,Lam Tin,22.3068,114.233
LET,88,利東,Lei Tung,22.2421,114.1562
LOW,76,羅湖,Lo Wu,22.5283,114.1134
LHP,57,康城,LOHAS Park,22.295609,114.2688154
LOF,9,樂富,Lok Fu,22.338,114.1871
LMC,78,落馬洲,Lok Ma Chau,22.5147688,114.0656867
LOP,117,朗屏,Long Ping,22.4477,114.0253
MOS,102,馬鞍山,Ma On Shan,22.4247,114.2316
MEF,20,美孚,Mei Foo,22.3381,114.1376
MOK,6,旺角,Mong Kok,22.3191,114.1694
MKK,65,旺角東,Mong Kok East,22.3222,114.1728
NAC,53,南昌,Nam Cheong,22.3263553,114.1535827
NTK,14,牛頭角,Ngau Tau Kok,22.3154,114.2193
NOP,31,北角,North Point,22.2909093,114.2007532
OCP,86,海洋公園,Ocean Park,22.2486,114.1743
OLY,41,奧運,Olympic,22.3178,114.1602
POA,52,寶琳,Po Lam,22.3224,114.258
PRE,16,太子,Prince Edward,22.3245,114.1683
QUB,32,鰂魚涌,Quarry Bay,22.2881931,114.2090052
SWH,34,西灣河,Sai Wan Ho,22.2816256,114.2222894
SYP,81,西營盤,Sai Ying Pun,22.2854347,114.1426424
SHT,68,沙田,Sha Tin,22.3825,114.1875
STW,97,沙田圍,Sha Tin Wai,22.3771,114.195
SSP,17,深水埗,Sham Shui Po,22.3307,114.1623
SKW,35,筲箕灣,Shau Kei Wan,22.2790972,114.2286665
SKM,7,石硤尾,Shek Kip Mei,22.332,114.1687
SHM,99,石門,Shek Mun,22.3877,114.2083
SHS,75,上水,Sheung Shui,22.5011719,"114.1280563,"
SHW,26,上環,Sheung Wan,22.2862,114.1518
SIH,119,兆康,Siu Hong,22.412,113.9786
SOH,89,海怡半島,South Horizons,22.2425,114.1491
SUW,92,宋皇臺,Sung Wong Toi,22.3258,114.1914
SUN,54,欣澳,Sunny Bay,22.3319843,114.0289149
TAK,33,太古,Tai Koo,22.2845316,114.2163521
TAP,72,大埔墟,Tai Po Market,22.4446507,114.1706348
TSH,100,大水坑,Tai Shui Hang,22.4088,114.223
TAW,67,大圍,Tai Wai,22.3731,114.1786
TWO,73,太和,Tai Wo,22.4511,114.1611
TWH,24,大窩口,Tai Wo Hau,22.3708,114.125
TIH,29,天后,Tin Hau,22.2822771,114.1919173
TIS,118,天水圍,Tin Shui Wai,22.4481,114.0046
TIK,49,調景嶺,Tiu Keng Leng,22.3040753,114.2523705
TKW,93,土瓜灣,To Kwa Wan,22.3172,114.1876
TKO,50,將軍澳,Tseung Kwan O,22.3074,114.26
TST,3,尖沙咀,Tsim Sha Tsui,22.2973,114.1722
TSY,42,青衣,Tsing Yi,22.3583631,114.1074287
TSW,25,荃灣,Tsuen Wan,22.3735943,114.1178355
TWW,114,荃灣西,Tsuen Wan West,22.3686,114.1098
TUM,120,屯門,Tuen Mun,22.3952,113.9731
TUC,43,東涌,Tung Chung,22.2892449,113.9413739
UNI,71,大學,University,22.4135688,114.2101033
WAC,27,灣仔,Wan Chai,22.2773,114.1728
WHA,85,黃埔,Whampoa,22.305,114.1896
WCH,87,黃竹坑,Wong Chuk Hang,22.248,114.1681
WTS,10,黃大仙,Wong Tai Sin,22.3417,114.1939
WKS,103,烏溪沙,Wu Kai Sha,22.4291,114.2438
YMT,5,油麻地,Yau Ma Tei,22.3129,114.1707
YAT,48,油塘,Yau Tong,22.2977882,114.2371593
YUL,116,元朗,Yuen Long,22.4461,114.0352
EXC,63,會展,Exhibition Centre,22.2818,114.1754