ID,Station,OS X,OS Y,Latitude,Longitude,Zone,Postcode
1,Abbey Road,539081,183352,51.531952,0.003723371098,3,E15 3NB
2,Abbey Wood,547297,179002,51.4907843,0.1202719706,4,SE2 9RH
3,Acton Central,520613,180299,51.50875735,-0.2634301953,2,W3 6BH
4,Acton Main Line,520296,181196,51.5168865,-0.267689948,3,W3 9EH
5,Acton Town,519457,179639,51.50307099,-0.2803026968,3,W3 8HN
6,Addington Village,537082,163744,51.35623854,-0.03266510033,"3,4,5,6",CR0 5AR
7,Addiscombe,534190,166290,51.37980817,-0.07321328252,"3,4,5,6",CR0 7AA
8,Albany Park,547903,172902,51.43581582,0.1264446387,5,DA5 3HP
9,Aldgate,533629,181246,51.51434226,-0.07562691232,1,EC3N 1AH
10,Aldgate East,533809,181333,51.51508151,-0.07300146242,1,E1 7PT
11,Alexandra Palace,530300,190498,51.59826263,-0.1201489714,3,N22 7ST
12,All Saints,538012,180933,51.51047691,-0.01262488536,2,E14 0EH
13,Alperton,518025,183849,51.54120879,-0.2995157535,4,HA0 4LL
14,Amersham,496454,198181,51.67412833,-0.6065137679,9,HP6 5AZ
15,Ampere Way,530674,166476,51.38229922,-0.1236367985,"3,4,5,6",CR0 3JX
16,Anerley,534656,169942,51.41251661,-0.06513709988,4,SE20 8PY
17,Angel,531497,183263,51.53296785,-0.1055814483,1,N1 8XB
18,Angel Road,535204,192202,51.61242024,-0.04873291924,4,N18 3AY
19,Archway,529356,186827,51.56549032,-0.1351215756,"2,3",N19 5RQ
20,Arena,535192,167620,51.39152266,-0.05831854989,"3,4,5,6",SE25 4RY
21,Arnos Grove,529271,192471,51.61622992,-0.1342702177,4,N11 1AN
22,Arsenal,531429,186107,51.55854121,-0.105499933,2,N5 1LP
23,Avenue Road,535764,169335,51.4067979,-0.04944693697,"3,4,5,6",BR3 4NJ
24,Baker Street,527965,182078,51.52312937,-0.156904193,1,NW1 5LA
25,Balham,528482,173195,51.44318231,-0.152685162,3,SW12 9SG
26,Bank,532704,181111,51.51334692,-0.08900012349,1,EC3V 3LA
27,Banstead,524590,160426,51.32929278,-0.2131323335,6,SM7 1RB
28,Barbican,532079,181859,51.52021513,-0.09772157809,1,EC1A 4JA
29,Barking,544405,184343,51.53952125,0.0808316104,4,IG11 8TU
30,Barkingside,544788,189510,51.58585076,0.08847664011,4,IG6 1NB
31,Barnehurst,550206,176193,51.46478055,0.1609480239,6,DA7 6HQ
32,Barnes,522209,175705,51.46712738,-0.2420330586,3,SW13 0LW
33,Barnes Bridge,521478,176255,51.47222764,-0.2523626133,3,SW13 0NR
34,Barons Court,524133,178322,51.49022833,-0.2134301424,2,W14 9DP
35,Battersea Park,528703,176999,51.47731808,-0.1481237604,2,SW8 4NB
36,Battersea Power Station,529122,177252,51.47949634,-0.1420013514,1,
37,Bayswater,525845,180799,51.51211098,-0.1879015719,1,W2 4QH
38,Beckenham Hill,538002,171379,51.42462603,-0.01649576197,4,SE6 3NU
39,Beckenham Junction,537403,169840,51.4109416,-0.02570173911,4,BR3 1HY
40,Beckenham Road,536177,169650,51.40952968,-0.04339192197,"3,4,5,6",BR3 4RR
41,Beckton,543145,181509,51.51437673,0.06152529716,3,E6 5NT
42,Beckton Park,542697,180887,51.50890089,0.05482193905,3,E6 5NE
43,Becontree,547598,184442,51.53958562,0.1268802927,5,RM9 4TP
44,Beddington Lane,529367,167215,51.38923965,-0.1421384332,"3,4,5,6",CR0 4TF
45,Belgrave Walk,526805,168455,51.40096136,-0.1784964722,"3,4,5,6",CR4 4NY
46,Bellingham,537702,172399,51.43386486,-0.02041177029,3,SE6 3BT
47,Belmont,525500,162098,51.3441196,-0.1994892509,5,SM2 6BH
48,Belsize Park,527399,185075,51.55019061,-0.163974491,2,NW3 2AL
49,Belvedere,549498,179197,51.49195925,0.1520337933,5,DA17 6JW
50,Bermondsey,534461,179445,51.49796068,-0.06433008981,2,SE16 4RX
51,Berrylands,519728,168040,51.39876795,-0.2803214729,5,KT5 8LT
52,Bethnal Green,534995,182712,51.52719165,-0.05539211145,2,E2 0ET
53,Bethnal Green Rail,534683,182380,51.52428264,-0.0600137424,2,E2 6JL
54,Bexley,549399,173502,51.44081478,0.1482039143,6,DA5 1AQ
55,Bexleyheath,548294,176000,51.46355018,0.1333629661,5,DA7 4AA
56,Bickley,542304,168799,51.40037964,0.0443040317,5,BR1 2EB
57,Birkbeck,535297,168996,51.403863,-0.05628623554,4,BR3 4TA
58,Blackfriars,531738,180890,51.51158676,-0.1029953846,1,EC4V 4DD
59,Blackheath,539604,175961,51.46540803,0.008336594713,3,SE3 9LE
60,Blackhorse Lane,534362,166844,51.38474607,-0.07053394761,"3,4,5,6",CR0 6NL
61,Blackhorse Road,535914,189256,51.58577656,-0.03962571147,3,E17 6JJ
62,Blackwall,538394,180649,51.50783153,-0.007235165878,2,E14 9QB
63,Bond Street,528497,181053,51.51379728,-0.1496136085,1,W1C 2HU
64,Borough,532379,179734,51.50104872,-0.09419732264,1,SE1 1JX
65,Boston Manor,516391,178755,51.49576501,-0.3247471826,4,TW8 9LQ
66,Bounds Green,529996,191466,51.60703172,-0.1241770647,"3,4",N11 2EU
67,Bow Church,537414,182824,51.52761517,-0.02049989918,2,E3 3AA
68,Bow Road,537148,182753,51.52704177,-0.02435959063,2,E3 4DH
69,Bowes Park,530299,191498,51.60724932,-0.1197922183,"3,4",N22 8NL
70,Brent Cross,523905,187927,51.57659887,-0.2133358379,3,NW11 9UA
71,Brentford,517462,177864,51.4875358,-0.3096225311,4,TW8 9LF
72,Brentwood,559321,193036,51.61361083,0.2996728215,7,CM14 4EW
73,Brimsdown,536297,196997,51.65524457,-0.03109227689,5,EN3 7NA
74,Brixton,531076,175437,51.46273662,-0.1145520968,2,SW9 8HE
75,Brockley,536405,175801,51.4647496,-0.03774825047,2,SE4 2RW
76,Bromley North,540395,169699,51.40894234,0.01723545196,4,BR1 3NN
77,Bromley South,540431,168705,51.40000132,0.0173595805,5,BR1 1LX
78,Bromley-by-Bow,538034,182532,51.52484018,-0.01168237435,"2,3",E3 3BT
79,Brondesbury,524718,184460,51.54526203,-0.2028384833,2,NW6 7QL
80,Brondesbury Park,524202,183898,51.54032502,-0.2104739441,2,NW6 6RP
81,Broxbourne,537407,207240,51.74701555,-0.01102408378,9,EN10 7AW
82,Bruce Grove,533758,190115,51.59401113,-0.07039898936,3,N17 8AD
83,Buckhurst Hill,541768,193957,51.62657674,0.04671254143,5,IG9 5ET
84,Burnham,494007,181378,51.52350399,-0.6463882083,,SL1 6JT
85,Burnt Oak,520303,190728,51.60255148,-0.2643307082,4,HA8 0LA
86,Bush Hill Park,533696,195396,51.64148185,-0.06928041223,5,EN1 1BA
87,Bushey,511860,195318,51.64554353,-0.3847215327,8,WD19 4ST
88,Caledonian Road,530568,184899,51.54788525,-0.1183608611,2,N7 9BA
89,Caledonian Road and Barnsbury,530800,184393,51.54328439,-0.1152048559,2,N1 0SL
90,Cambridge Heath,534855,183250,51.53205967,-0.05720320064,2,E2 7NA
91,Camden Road,529140,184191,51.54185101,-0.1392031114,2,NW1 9LQ
92,Camden Town,528920,183976,51.53996912,-0.1424523799,2,NW1 8NH
93,Canada Water,535399,179493,51.49816833,-0.05080712085,2,SE16 7BB
94,Canary Wharf,537558,180153,51.50357838,-0.01946684014,2,E14 4QS
95,Canning Town,539454,181350,51.5138703,0.008305632749,3,E16 1DQ
96,Cannon Street,532623,180888,51.51136194,-0.09025052642,1,EC4N 6AP
97,Canonbury,532355,184979,51.54818824,-0.09257419533,2,N1 2PG
98,Canons Park,518208,191246,51.60765009,-0.2943915915,5,HA8 6RN
99,Carpenders Park,511826,193386,51.62818609,-0.3858293151,7,WD19 7DT
100,Carshalton,527737,164858,51.3684261,-0.1663983264,5,SM5 2HT
101,Carshalton Beeches,527552,163625,51.35738657,-0.1694963245,5,SM5 3LG
102,Castle Bar Park,515853,181770,51.52297312,-0.3315040699,4,W7 1AY
103,Caterham,534099,155422,51.2821627,-0.07860729821,6,CR3 6LB
104,Catford,537245,173544,51.44426487,-0.02653849856,3,SE6 4XT
105,Catford Bridge,537363,173595,51.44469459,-0.02482187591,3,SE6 4RE
106,Centrale,532067,165785,51.3757673,-0.1038881032,"3,4,5,6",CR0 1XT
107,Chadwell Heath,547646,187611,51.56804709,0.1289011126,5,RM6 4BE
108,Chafford Hundred,558922,178770,51.48555497,0.2874757055,7,RM16 6QQ
109,Chalfont and Latimer,499610,197550,51.66790656,-0.5610677589,8,HP7 9PR
110,Chalk Farm,528126,184421,51.54414884,-0.1537330695,2,NW3 2BP
111,Chancery Lane,531096,181642,51.51849384,-0.1119620268,1,WC1V 6DR
112,Charing Cross,530234,180492,51.50835843,-0.1248029372,1,WC2N 5HS
113,Charlton,541108,178387,51.48683504,0.03094164486,3,SE7 7AB
114,Cheam,524444,163334,51.35545989,-0.2142112809,5,SM3 8RZ
115,Chelsfield,546944,164021,51.35626476,0.1089841204,6,BR6 6EU
116,Chesham,496048,201650,51.70537902,-0.6114296353,9,HP5 1DH
117,Cheshunt,536652,202307,51.70287328,-0.02388741543,8,EN8 9AQ
118,Chessington North,518415,164168,51.36424295,-0.3004761236,6,KT9 2RT
119,Chessington South,517974,163319,51.35670403,-0.3070890152,6,KT9 2DD
120,Chigwell,543835,193045,51.617858,0.07617921535,4,IG7 6NT
121,Chingford,539173,194628,51.63325339,0.009514325531,5,E4 6AL
122,Chipstead,527689,158275,51.30927471,-0.1694458678,6,CR5 3TD
123,Chislehurst,543205,169405,51.40559851,0.05749182165,5,BR7 5NN
124,Chiswick,520438,177182,51.48078106,-0.2670133177,3,W4 2QE
125,Chiswick Park,520352,178692,51.49437028,-0.267736918,3,W4 5NE
126,Chorleywood,502596,196092,51.65426508,-0.5183339109,7,WD3 5ND
127,Church Street,532041,165555,51.37370639,-0.1043468283,"3,4,5,6",CR0 1RN
128,City Thameslink,531688,181150,51.5139349,-0.1036184486,1,EC4M 7JH
129,Clapham Common,529428,175291,51.46180345,-0.1383149014,2,SW4 7AJ
130,Clapham High Street,529824,175709,51.4654693,-0.1324645016,2,SW4 6DQ
131,Clapham Junction,527198,175520,51.46436651,-0.1703150005,2,SW11 2QP
132,Clapham North,530003,175652,51.464916,-0.1299100619,2,SW4 7TS
133,Clapham South,528782,174259,51.45267625,-0.1479840683,"2,3",SW12 9DU
134,Clapton,534748,186531,51.561569,-0.05748945827,2,E5 9JP
135,Clock House,536367,169545,51.4085405,-0.0407020925,4,BR3 4PR
136,Cockfosters,528087,196424,51.65202424,-0.1499167098,5,EN4 0DZ
137,Colindale,521295,189937,51.59523011,-0.2502875401,4,NW9 5HR
138,Colliers Wood,526831,170436,51.4187589,-0.177415098,3,SW19 2HR
139,Coombe Lane,535201,164089,51.35978921,-0.05953157112,"3,4,5,6",CR0 5RF
140,Coulsdon South,529869,159056,51.31580072,-0.1379030892,6,CR5 3EA
141,Coulsdon Town,530098,159802,51.32245274,-0.1343470562,6,CR5 2JA
142,Covent Garden,530242,180982,51.51276003,-0.1245068937,1,WC2E 9JT
143,Crayford,551479,174424,51.44854705,0.1785027182,6,DA1 3PY
144,Crews Hill,530973,200109,51.68447444,-0.1068441001,6,EN2 8AY
145,Cricklewood,524009,185907,51.55842232,-0.2125479315,3,NW2 1HL
146,Crofton Park,536517,174739,51.45517924,-0.03654658176,3,SE4 2RA
147,Crossharbour,537896,179301,51.49583996,-0.01493281309,2,E14 8AD
148,Crouch Hill,530586,187508,51.57132691,-0.1171332841,3,N4 4AU
149,Croxley,507921,195395,51.64700456,-0.4416037869,7,WD3 3DY
150,Crystal Palace,534120,170557,51.41817024,-0.07260723246,"3,4",SE19 2AZ
151,Custom House,540679,180911,51.5096221,0.02577251031,3,E16 3BX
152,Cutty Sark for Maritime Greenwich,538240,177764,51.48194445,-0.01058186672,2,SE10 9SW
153,Cyprus,543324,180863,51.50852669,0.06384075607,3,E6 5PH
154,Dagenham Dock,548900,183000,51.52628744,0.1450310153,5,RM9 6RA
155,Dagenham East,550284,185033,51.54418761,0.1658334333,5,RM10 8AA
156,Dagenham Heathway,549035,184665,51.54121204,0.1476797215,5,RM9 5AN
157,Dalston Junction,533580,184778,51.5460936,-0.0749942045,2,E8 3DL
158,Dalston Kingsland,533487,185062,51.5486677,-0.07622692162,2,E8 2JS
159,Debden,544275,196133,51.64549214,0.08380147526,6,IG10 3TG
160,Denmark Hill,532697,176087,51.46820049,-0.0909878691,2,SE5 8BB
161,Deptford,537165,177395,51.47889004,-0.02619631953,2,SE8 3NU
162,Deptford Bridge,537466,176912,51.47447674,-0.02205242877,"2,3",SE10 8BU
163,Devons Road,537603,182233,51.52225844,-0.01800775418,2,E3 3QX
164,Dollis Hill,522207,185132,51.5518502,-0.2387977584,3,NW10 5NB
165,Drayton Green,516002,180998,51.51600414,-0.3296112534,4,W13 0JX
166,Drayton Park,531426,185499,51.55307814,-0.1057701991,2,N5 1NT
167,Dundonald Road,524741,170233,51.41739781,-0.2075271102,"3,4,5,6",SW19 3QJ
168,Ealing Broadway,517920,180915,51.51486148,-0.3020103761,3,W5 2NU
169,Ealing Common,518963,180426,51.51024819,-0.2871514131,3,W5 3LD
170,Earl's Court,525457,178480,51.49135636,-0.1943138071,"1,2",SW5 9QA
171,Earlsfield,526081,173030,51.4422385,-0.1872726865,3,SW18 4SW
172,East Acton,521656,181159,51.51626301,-0.2481122213,2,W12 0BP
173,East Croydon,532904,165801,51.37571595,-0.09186349554,5,CR0 1LF
174,East Dulwich,533449,175375,51.46162545,-0.08043657113,2,SE22 8EF
175,East Finchley,527242,189204,51.58733228,-0.1647438844,3,N2 0NW
176,East Ham,542373,184255,51.53924625,0.05151629348,"3,4",E6 2JA
177,East India,538729,180753,51.50868401,-0.002370331549,"2,3",E14 9PS
178,East Putney,524387,174840,51.45887944,-0.2109982316,"2,3",SW15 6SN
179,Eastcote,511191,187627,51.57655118,-0.3968232901,5,HA5 1QZ
180,Eden Park,537396,167598,51.39079606,-0.02666971551,5,BR3 3HQ
181,Edgware,519527,192009,51.61422917,-0.2750936621,5,HA8 7AW
182,Edgware Road (Bakerloo),527026,181778,51.52064508,-0.1705395499,1,W2 1DY
183,Edgware Road (Circle/District/Hammersmith and City),527227,181711,51.51999777,-0.1676682527,1,NW1 5DH
184,Edmonton Green,534273,193590,51.6251156,-0.06163901924,4,N9 9DX
185,Elephant and Castle,531940,179144,51.49584922,-0.1007387143,"1,2",SE1 6LW
186,Elm Park,552446,185647,51.54912491,0.1972526843,6,RM12 4RW
187,Elmers End,535788,168389,51.39829103,-0.04946383214,4,BR3 4EJ
188,Elmstead Woods,542247,170656,51.41708071,0.04422934284,4,BR7 5EW
189,Elstree and Borehamwood,519098,196299,51.65287512,-0.2798286149,6,WD6 3LS
190,Eltham,542690,174962,51.45566231,0.0523293079,4,SE9 6UB
191,Elverson Road,537848,176243,51.46837217,-0.0168163762,"2,3",SE8 4LA
192,Embankment,530406,180380,51.5073123,-0.1223673357,1,WC2N 6NS
193,Emerson Park,553971,187918,51.56911527,0.2202229372,6,RM11 2JR
194,Enfield Chase,532181,196607,51.65272197,-0.09070420501,5,EN2 7AA
195,Enfield Lock,536437,198737,51.67084608,-0.02839107006,6,EN3 6BW
196,Enfield Town,532970,196544,51.65196995,-0.07932992173,5,EN1 1YB
197,Epping,546197,201552,51.69368635,0.1138255535,6,CM16 4HW
198,Epsom Downs,522805,159756,51.32365905,-0.2389702235,6,KT17 4JX
199,Erith,551075,178096,51.48164796,0.174261291,6,DA8 1TY
200,Essex Road,532114,184132,51.54063316,-0.09636552536,2,N1 2SU
201,Euston,529587,182735,51.52866411,-0.1332964708,1,NW1 2DU
202,Euston Square,529587,182735,51.52866411,-0.1332964708,1,NW1 2BN
203,Ewell East,522571,162152,51.34524348,-0.241502998,6,KT17 1QR
204,Ewell West,521473,162654,51.34999072,-0.2570891292,6,KT17 1TU
205,Fairlop,544902,190655,51.59610969,0.09059327992,4,IG6 3HD
206,Falconwood,544498,175394,51.45908593,0.07850969338,4,SE9 2RN
207,Farringdon,531585,181844,51.52019552,-0.1048430613,1,EC1M 6BY
208,Feltham,510601,173298,51.4478785,-0.4098244712,6,TW13 4BY
209,Fenchurch Street,533434,180932,51.51156658,-0.07855415245,1,EC3M 4AJ
210,Fieldway,537665,163212,51.35131697,-0.02450326533,"3,4,5,6",CR0 0QA
211,Finchley Central,525232,190664,51.60090294,-0.1932206347,4,N3 2RY
212,Finchley Road,526293,184703,51.54709591,-0.1800505586,2,NW6 3BS
213,Finchley Road and Frognal,526035,185033,51.5501192,-0.1836512007,2,NW3 5HT
214,Finsbury Park,531385,186784,51.56463527,-0.1058814855,2,N4 3JU
215,Forest Gate,540447,185322,51.54931616,0.02418909154,3,E7 0QH
216,Forest Hill,535398,172943,51.43930823,-0.05332850425,3,SE23 3HD
217,Fulham Broadway,525402,177244,51.48026059,-0.1955441615,2,SW6 1BY
218,Fulwell,514832,171841,51.433942,-0.3494385176,6,TW2 5NY
219,Gallions Reach,543873,180935,51.50903426,0.07177539473,3,E6 6FZ
220,Gants Hill,543266,188432,51.57655306,0.06608409806,4,IG2 6UD
221,George Street,532432,165594,51.3739659,-0.09871810466,"3,4,5,6",CRO 1LA
222,Gidea Park,552941,189306,51.58186609,0.2059769831,6,RM2 6BX
223,Gipsy Hill,533321,171237,51.42446939,-0.08383516711,3,SE19 1PL
224,Gloucester Road,526196,178848,51.49449926,-0.1835435576,1,SW7 4SF
225,Golders Green,525199,187471,51.57221522,-0.1948345569,3,NW11 7RN
226,Goldhawk Road,523131,179616,51.5020766,-0.2274040032,2,W12 8EG
227,Goodge Street,529505,181837,51.52061289,-0.1348076891,1,W1T 2HF
228,Goodmayes,546462,187369,51.56618117,0.111729655,4,IG3 9UH
229,Gordon Hill,531889,197799,51.66350209,-0.09447329927,5,EN2 0QU
230,Gospel Oak,528263,185677,51.55540505,-0.1513010312,2,NW5 1LT
231,Grange Hill,544963,192590,51.61348058,0.09227253017,4,IG7 5QB
232,Grange Park,531753,195472,51.64262292,-0.09731442326,5,N21 1RE
233,Gravel Hill,536359,163536,51.35454319,-0.04312169865,"3,4,5,6",CR0 5BJ
234,Great Portland Street,528861,182174,51.52378856,-0.1439614241,1,W1W 5PP
235,Green Park,529012,180283,51.50676025,-0.1424775744,1,W1J 7BX
236,Greenford,514808,183861,51.54197951,-0.3458787331,4,UB6 8PR
237,Greenwich,537956,177267,51.47754764,-0.0148630836,"2,3",SE10 8JQ
238,Grove Park,540702,172099,51.43043268,0.02259850219,4,SE12 0PW
239,Gunnersbury,519843,178401,51.49186296,-0.2751641314,3,W4 5RP
240,Hackbridge,528582,165929,51.37786065,-0.1538791969,4,SM6 7BJ
241,Hackney Central,534922,184943,51.54725736,-0.0555895118,2,E8 1LL
242,Hackney Downs,534598,185137,51.54907799,-0.06018510486,2,E8 1LA
243,Hackney Wick,537036,184588,51.54355837,-0.02525950277,2,E9 5ER
244,Hadley Wood,526197,198199,51.66840258,-0.1765811878,6,EN4 0EJ
245,Haggerston,533560,183953,51.53868461,-0.07559525776,2,E8 4DY
246,Hainault,545124,191411,51.60284548,0.09410855083,4,IG6 3BD
247,Hammersmith (District),523474,178483,51.49181941,-0.2228609259,2,W6 9YA
248,Hammersmith (Met.),523346,178665,51.49348299,-0.2246401545,2,W6 0ED
249,Hampstead,526408,185757,51.55654231,-0.1780145581,2,NW3 1QG
250,Hampstead Heath,527344,185631,51.55519966,-0.1645661817,3,NW3 2QD
251,Hampton,513299,169797,51.41587894,-0.3721352457,6,TW12 2HU
252,Hampton Court,515376,168332,51.40229332,-0.3427571453,6,KT8 9AE
253,Hampton Wick,517407,169752,51.41463953,-0.3131036039,6,KT1 4DQ
254,Hanger Lane,518506,182621,51.53007156,-0.2929961406,3,W5 1DL
255,Hanwell,515426,180560,51.51218541,-0.3380518778,4,W7 3EB
256,Harlesden,520952,183367,51.53625791,-0.2574956704,3,NW10 8UT
257,Harold Wood,554858,190626,51.5932026,0.2342040767,6,RM3 0BL
258,Harringay,531395,188200,51.57735774,-0.1052082519,3,N4 1RW
259,Harringay Green Lanes,531880,188189,51.57714573,-0.09821739122,3,N4 2NU
260,Harrington Road,535002,168535,51.39979047,-0.06069995435,"3,4,5,6",SE25 4NF
261,Harrow and Wealdstone,515486,189508,51.59259409,-0.3342526786,5,HA3 7RF
262,Harrow-on-the-Hill,515329,188035,51.57938757,-0.3370015107,5,HA1 1BB
263,Hatch End,513024,191370,51.6098279,-0.369178773,6,HA5 5LZ
264,Hatton Cross,509614,175369,51.46668461,-0.423380553,"5,6",TW6 3PF
265,Haydons Road,526012,171161,51.42545701,-0.1889293573,3,SW19 8SL
266,Hayes,540003,165993,51.37573673,0.01014265247,5,BR2 7EN
267,Hayes and Harlington,509717,179417,51.50304839,-0.4206418933,5,UB3 4BX
268,Headstone Lane,513892,190574,51.60249904,-0.356907507,5,HA2 6NB
269,Heathrow Terminal 4,507939,174565,51.4597797,-0.4477295783,6,TW6 3AA
270,Heathrow Terminal 5,504934,175642,51.47002462,-0.4906474891,6,TW6 2GA
271,Heathrow Terminals 2 and 3,507587,175838,51.47128866,-0.4524072136,6,TW6 1EB
272,Hendon,522143,188271,51.5800746,-0.2386305173,"3,4",NW4 4PT
273,Hendon Central,522959,188631,51.58313268,-0.2267341371,"3,4",NW4 3AS
274,Herne Hill,531934,174486,51.4539912,-0.1025629077,"2,3",SE24 0JW
275,Heron Quays,537386,180127,51.50338654,-0.02195353204,2,E14 4JH
276,High Barnet,525027,196310,51.65168794,-0.194165378,5,EN5 5RP
277,High Street Kensington,525622,179527,51.50072913,-0.1915660555,1,W8 5SA
278,Highams Park,538581,191841,51.608356,-0.0001352859195,4,E4 9LA
279,Highbury and Islington,531562,184770,51.54649534,-0.1040821392,2,N1 1SE
280,Highgate,528503,188158,51.57764638,-0.1469348609,3,N6 5BH
281,Hillingdon,507567,185015,51.55377678,-0.4498979816,6,UB10 9NR
282,Hither Green,538997,174497,51.45240172,-0.0009709123245,3,SE13 5NF
283,Holborn,530553,181488,51.51723554,-0.1198405066,1,WC2B 6AA
284,Holland Park,524564,180215,51.50714615,-0.2065577754,2,W11 3RB
285,Holloway Road,530930,185457,51.55281592,-0.1129356962,2,N7 8HS
286,Homerton,536108,184901,51.54659539,-0.03851234702,2,E9 5SD
287,Honor Oak Park,536002,174221,51.45064817,-0.04415312103,3,SE23 3LE
288,Hornchurch,553931,186274,51.55435547,0.2189269994,6,RM12 6LS
289,Hornsey,530911,189202,51.58647467,-0.1118156374,3,N8 8SE
290,Hounslow,513902,174998,51.46250423,-0.3617962484,5,TW3 3DL
291,Hounslow Central,513592,175928,51.47092517,-0.3659581214,4,TW3 1JG
292,Hounslow East,514327,176254,51.47370731,-0.3552753145,4,TW3 4AB
293,Hounslow West,512215,176140,51.47310509,-0.38570762,5,TW3 3DH
294,Hoxton,533582,183142,51.53139149,-0.07558564688,"1,2",E2 8HR
295,Hyde Park Corner,528330,179801,51.50258377,-0.1524741126,1,SW1X 7LY
296,Ickenham,508127,185811,51.56082433,-0.4415795013,6,UB10 8PD
297,Ilford,543501,186501,51.55914236,0.06868519118,4,IG1 4DU
298,Imperial Wharf,526299,176674,51.47493863,-0.1828375028,2,SW6 2HA
299,Island Gardens,538228,178432,51.48795007,-0.01049330313,2,E14 3FA
300,Isleworth,515570,176430,51.47503687,-0.3373287585,4,TW7 4BX
301,Iver,503729,179898,51.5085013,-0.5067404189,,SL0 9AU
302,Kenley,532400,160100,51.32460015,-0.1012197122,6,CR8 5JA
303,Kennington,531660,178337,51.48866229,-0.1050706128,2,SE11 4JQ
304,Kensal Green,523241,182784,51.53052385,-0.2247133811,2,NW10 5JT
305,Kensal Rise,523501,183201,51.53421471,-0.2208209758,2,NW10 3NT
306,Kensington (Olympia),524324,179178,51.49787936,-0.2103792398,2,W14 0NE
307,Kent House,535999,170000,51.41271759,-0.04581555306,4,BR3 1JF
308,Kentish Town,529029,185096,51.55000929,-0.1404712627,2,NW5 2AA
309,Kentish Town West,528603,184700,51.54654773,-0.1467564086,2,NW5 3LD
310,Kenton,516833,188304,51.58149577,-0.3152168608,4,HA3 0XS
311,Kew Bridge,518898,178172,51.49000415,-0.2888464899,3,TW8 0EF
312,Kew Gardens,519173,176708,51.47678867,-0.2853810067,"3,4",TW9 3PZ
313,Kidbrooke,540999,175697,51.46269024,0.02830023919,3,SE3 9NF
314,Kilburn,524589,184644,51.5469441,-0.2046327167,2,NW6 7QL
315,Kilburn High Road,525553,183591,51.53726743,-0.1911131036,2,NW6 7QL
316,Kilburn Park,525361,183349,51.53513522,-0.1939660549,2,NW6 5AD
317,King George V,543231,180135,51.50200871,0.06220621411,3,E16 2JF
318,King Henry's Drive,537978,162558,51.34536407,-0.02026475742,"3,4,5,6",CR0 0LH
319,King's Cross,530312,182991,51.53079799,-0.1227564205,1,N1 9AL
320,Kings Cross St. Pancras,530236,182935,51.53031226,-0.1238721287,1,N1 9AL
321,Kingsbury,519361,188739,51.58487606,-0.2786016037,4,NW9 9EG
322,Kingston,518244,169549,51.41264127,-0.3011410349,6,KT1 1UJ
323,Kingswood,524816,156585,51.29472279,-0.2112332235,6,KT20 6EN
324,Knightsbridge,527765,179650,51.50135464,-0.1606644846,1,SW3 1ED
325,Knockholt,548499,162896,51.34575216,0.1308310398,6,TN14 7HR
326,Ladbroke Grove,524284,181328,51.51721033,-0.2101981699,2,W10 6HJ
327,Ladywell,537716,174884,51.45619211,-0.01924440113,3,SE13 7XB
328,Lambeth North,531165,179489,51.49912977,-0.1117682605,1,SE1 7XG
329,Lancaster Gate,526711,180796,51.51189066,-0.1754299268,1,W2 4QH
330,Langdon Park,537807,181863,51.51888392,-0.01521379895,2,E14 6NW
331,Langley,501299,179800,51.50806077,-0.5417705561,,SL3 6DB
332,Latimer Road,523789,180954,51.51395774,-0.2174596633,2,W10 6SZ
333,Lea Bridge,536175,187133,51.5666362,-0.03668315766,3,E10 7PG
334,Lebanon Road,533385,165756,51.37519886,-0.08497364876,"3,4,5,6",CR0 6SF
335,Lee,540002,174197,51.44945854,0.01336469238,3,SE12 9JG
336,Leicester Square,529987,180812,51.51129097,-0.1282421466,1,WC2H 0AP
337,Lewisham,538163,175863,51.4648807,-0.0124327009,"2,3",SE13 7RY
338,Leyton,538295,186244,51.55813226,-0.006465331581,3,E10 5PS
339,Leyton Midland Road,538150,187490,51.56936423,-0.00806634743,3,E10 6JT
340,Leytonstone,539345,187429,51.56852231,0.009140451957,"3,4",E11 1HE
341,Leytonstone High Road,539298,186903,51.56380736,0.008254468836,3,E11 4RE
342,Limehouse,536150,181087,51.5123121,-0.03938007766,2,E14 7JD
343,Liverpool Street,533160,181596,51.51759813,-0.08224962189,1,EC2M 7PR
344,Lloyd Park,533711,164549,51.36427541,-0.0807462727,"3,4,5,6",CR0 5RA
345,London Bridge,532937,180152,51.50467421,-0.08600559775,1,SE1 2SW
346,London City Airport,542231,180294,51.50368975,0.04787271558,3,E16 2DS
347,London Fields,534795,184212,51.54071875,-0.05769968622,2,E8 3PH
348,Loughborough Junction,531902,175897,51.46667873,-0.1024973409,2,SW9 8SA
349,Loughton,542314,195641,51.64157057,0.05527907929,6,IG10 4PD
350,Lower Sydenham,536831,171372,51.42484679,-0.03333034148,4,SE26 5AU
351,Maida Vale,525967,182792,51.52999476,-0.1854326449,2,W9 1JS
352,Maidenhead,488724,180745,51.51866743,-0.7226749106,,SL6 1EW
353,Malden Manor,521101,166497,51.38460911,-0.2611204124,4,KT3 5PN
354,Manor House,532074,187482,51.57074699,-0.09568497573,"2,3",N4 1BZ
355,Manor Park,541929,185757,51.55285443,0.04572387019,"3,4",E12 5EP
356,Mansion House,532347,180962,51.5120916,-0.09419765724,1,EC4N 6JD
357,Marble Arch,527875,181056,51.51396523,-0.1585712148,1,W1C 2JS
358,Maryland,539175,184881,51.54566828,0.005681654184,3,E15 1SA
359,Marylebone,527510,181985,51.5223964,-0.1634925623,1,NW1 6JJ
360,Maze Hill,539194,177909,51.48301366,0.003204896819,3,SE10 9XG
361,Meridian Water,535062,191741,51.60831171,-0.05095990638,4,N18 3HF
362,Merton Park,525182,169798,51.41339128,-0.2013420288,"3,4,5,6",SW19 3HA
363,Mile End,536577,182545,51.52531092,-0.03266608427,2,E3 4DH
364,Mill Hill Broadway,521300,191900,51.61287072,-0.2495370649,4,NW7 2JU
365,Mill Hill East,524057,191460,51.6083163,-0.2098957103,4,NW7 1BS
366,Mitcham,527345,168082,51.39748834,-0.1708716455,"3,4,5,6",CR4 4BD
367,Mitcham Eastfields,528488,169323,51.40838366,-0.1540017174,3,CR4 2ND
368,Mitcham Junction,528292,167611,51.39304231,-0.1574366422,4,CR4 4HN
369,Monument,532907,180814,51.51063028,-0.08618831326,1,EC4R 9AA
370,Moor Park,508563,193509,51.62992996,-0.4329130165,"6,7",HA6 2JQ
371,Moorgate,532688,181677,51.518437,-0.08901768742,1,EC2M 6TX
372,Morden,525664,168563,51.40218564,-0.1948519795,4,SM4 5AZ
373,Morden Road,525788,169310,51.40887158,-0.1928056751,"3,4,5,6",SW19 3BX
374,Morden South,525301,167900,51.39630737,-0.2003015597,4,SM4 5AN
375,Mornington Crescent,529193,183359,51.53436199,-0.1387443487,2,NW1 2JA
376,Mortlake,520458,175779,51.4681675,-0.2672033098,3,SW14 8LN
377,Motspur Park,522581,167724,51.39531924,-0.2394397426,4,KT3 6JJ
378,Mottingham,542600,173197,51.43982506,0.05032420233,4,SE9 4EN
379,Mudchute,537908,178789,51.49123616,-0.01495994488,2,E14 9UW
380,Neasden,521415,185422,51.55462731,-0.2501150417,3,NW10 1PH
381,New Addington,538187,162255,51.34259048,-0.01738332707,"3,4,5,6",CR0 0DE
382,New Barnet,526502,195996,51.64853649,-0.1729697123,5,EN5 1QT
383,New Beckenham,536718,170463,51.41670549,-0.03530494925,4,BR3 1QW
384,New Cross,536750,177110,51.47642936,-0.03227881145,2,SE14 6LD
385,New Cross Gate,536250,176967,51.47526487,-0.03952905185,2,SE14 6AR
386,New Eltham,544005,172999,51.43769078,0.07044461869,4,SE9 2AB
387,New Malden,521392,168612,51.40355549,-0.2562181023,4,KT3 4PX
388,New Southgate,528672,192218,51.61409344,-0.1430097749,4,N11 1QH
389,Newbury Park,544947,188378,51.57563851,0.0903031582,4,IG2 7RN
390,Nine Elms,530058,177332,51.48000105,-0.1285009828,1,
391,Norbiton,519424,169495,51.41190889,-0.2841999432,5,KT2 7AZ
392,Norbury,530650,169690,51.4111883,-0.122799401,3,SW16 3RW
393,North Acton,520831,181937,51.523432,-0.2597295239,"2,3",W3 6UP
394,North Dulwich,532950,174567,51.45448167,-0.08791868027,"2,3",SE21 7BX
395,North Ealing,518816,181243,51.51762182,-0.2889935478,3,W5 3AF
396,North Greenwich,539168,179827,51.50025516,0.003586259126,"2,3",SE10 0PH
397,North Harrow,513540,188578,51.58463071,-0.3626329856,5,HA2 7SR
398,North Sheen,519132,175442,51.46541914,-0.286397462,3,TW9 4QA
399,North Wembley,517663,186198,51.5623958,-0.3039482139,4,HA0 3NT
400,Northfields,517051,179296,51.50049116,-0.315064813,3,W13 9QU
401,Northolt,513228,184519,51.5482123,-0.3684405876,5,UB5 4AA
402,Northolt Park,513829,185579,51.55761847,-0.3594341889,5,UB5 4XE
403,Northumberland Park,534861,191035,51.60201565,-0.05413202547,3,N17 0HY
404,Northwick Park,516634,187967,51.57850817,-0.318199386,4,HA3 0AT
405,Northwood,509236,191441,51.61121292,-0.4238377762,6,HA6 2XL
406,Northwood Hills,510267,190305,51.60080198,-0.4093113481,6,HA6 1NZ
407,Norwood Junction,534001,168193,51.3969542,-0.07520985621,4,SE25 5AG
408,Notting Hill Gate,525296,180481,51.50937502,-0.1959216162,"1,2",W11 3HT
409,Nunhead,535293,175975,51.4665799,-0.05367974248,2,SE15 3XE
410,Oakleigh Park,527001,194800,51.63767609,-0.166194965,4,EN5 1BU
411,Oakwood,529349,195968,51.64763775,-0.1318535388,5,N14 4UT
412,Ockendon,559004,182828,51.52199012,0.29048348,7,RM15 6PD
413,Old Street,532764,182474,51.52558133,-0.08762295739,1,EC1V 9NR
414,Orpington,545500,165900,51.3735202,0.08902890194,6,BR6 0SX
415,Osterley,514529,177094,51.48121624,-0.3520960888,4,TW7 4PU
416,Oval,531108,177516,51.48141242,-0.1133210751,2,SE11 4PP
417,Oxford Circus,529102,181227,51.51522317,-0.1408361701,1,W1C 2JS
418,Paddington,526680,181185,51.5153935,-0.1757367503,1,W2 1RH
419,Palmers Green,530925,192798,51.61878657,-0.1102724993,4,N13 4PN
420,Park Royal,519074,182274,51.52683356,-0.284928913,3,W5 3EL
421,Parsons Green,525029,176645,51.47495983,-0.20112449,2,SW6 4HU
422,Peckham Rye,534152,176271,51.46951125,-0.06998355291,2,SE15 5DQ
423,Penge East,535374,170791,51.41997526,-0.05449526464,4,SE20 7BQ
424,Penge West,534952,170567,51.41806283,-0.06064576434,4,SE20 8NU
425,Perivale,516404,183270,51.53634129,-0.3230704159,4,UB6 7NP
426,Petts Wood,544440,167548,51.38859912,0.0744800301,5,BR5 1LZ
427,Phipps Bridge,526534,168717,51.40337643,-0.1822967869,"3,4,5,6",CR4 3QN
428,Piccadilly Circus,529612,180625,51.50969653,-0.1337115962,1,W1J 9HS
429,Pimlico,529711,178386,51.48955265,-0.1331082574,1,SW1V 2JA
430,Pinner,512233,189409,51.59236106,-0.3812237817,5,HA5 5LZ
431,Plaistow,540058,183305,51.53128837,0.017780642,3,E13 0DY
432,Plumstead,544803,178820,51.48979257,0.08429961697,4,SE18 7EA
433,Ponders End,536097,195599,51.64273064,-0.03452510446,5,EN3 4LA
434,Pontoon Dock,541226,180102,51.50221627,0.03332570755,3,E16 2SB
435,Poplar,537698,180603,51.50758804,-0.01727549329,2,E14 0DS
436,Preston Road,518260,187292,51.57210325,-0.2949720075,4,HA3 0PS
437,Prince Regent,541215,180905,51.50943461,0.03348857411,3,E16 3HE
438,Pudding Mill Lane,537930,183585,51.53432784,-0.01276851194,"2,3",E15 2PH
439,Purfleet,555417,178174,51.4811734,0.2367748391,7,RM16 1PL
440,Purley,531500,161497,51.33736337,-0.1136135171,6,CR8 2AP
441,Purley Oaks,532503,162594,51.34698918,-0.0988153325,6,CR2 0ND
442,Putney,523992,175061,51.46095218,-0.2166033708,"2,3",SW15 1RT
443,Putney Bridge,524476,175842,51.467865,-0.2093654143,2,SW6 3UH
444,Queens Park,524612,183239,51.53431232,-0.204798147,2,NW6 6HJ
445,Queens Road Peckham,535015,176825,51.47428462,-0.05735497867,2,SE15 2JR
446,Queensbury,518802,189728,51.59388251,-0.2863315926,4,HA8 5NP
447,Queenstown Road,528763,176738,51.47495889,-0.1473553108,2,SW8 3RX
448,Queensway,525883,180615,51.51044893,-0.187419901,1,W2 4SS
449,Rainham,552097,182099,51.51734083,0.1906919776,6,RM13 9YH
450,Ravensbourne,538699,170201,51.41387037,-0.00693781553,4,BR3 5HE
451,Ravenscourt Park,522558,178711,51.4940676,-0.2359692299,2,W6 0UG
452,Rayners Lane,512979,187538,51.57539613,-0.3710608057,5,HA5 5EG
453,Raynes Park,523206,169303,51.40937497,-0.2299129363,4,SW20 8NE
454,Reading,471527,173813,51.45878457,-0.971877621,,RG1 1LZ
455,Rectory Road,534001,186199,51.55876337,-0.06838566445,2,N16 7QB
456,Redbridge,541833,188371,51.57636699,0.04539404409,4,IG4 5BG
457,Reedham,530835,160821,51.33144151,-0.1234026235,6,CR8 2DG
458,Reeves Corner,531895,165726,51.37527703,-0.1063797776,"3,4,5,6",CR0 1XP
459,Regents Park,528765,182174,51.52381044,-0.1453444097,1,NW1 5HA
460,Richmond,518072,175174,51.46323239,-0.3017391287,4,TW9 2AZ
461,Rickmansworth,505717,194605,51.64032224,-0.473684571,7,WD3 1QY
462,Riddlesdown,532497,161001,51.33267467,-0.09949366691,6,CR8 1HN
463,Roding Valley,541612,192882,51.61695652,0.04402620713,4,IG9 6LN
464,Romford,551377,188455,51.57464189,0.1830552743,6,RM1 1SX
465,Rotherhithe,535239,179870,51.50159442,-0.05296629625,2,SE16 4LF
466,Royal Albert,542029,180823,51.50849395,0.04517714519,3,E16 2QD
467,Royal Oak,525764,181485,51.51829405,-0.1888236715,2,W2 6ET
468,Royal Victoria,540139,180833,51.50905527,0.01796541259,3,E16 1DE
469,Ruislip,509510,187102,51.57216123,-0.4212349156,6,HA4 8LD
470,Ruislip Gardens,510367,185763,51.55995951,-0.4092941014,5,HA4 6LG
471,Ruislip Manor,510088,187258,51.5734509,-0.4128493444,6,HA4 9AA
472,Russell Square,530207,182122,51.52301284,-0.1245901969,1,WC1N 1LG
473,Sanderstead,532855,162743,51.3482461,-0.09370849955,6,CR2 0PL
474,Sandilands,533869,165749,51.37502215,-0.07802658942,"3,4,5,6",CR0 5PN
475,Selhurst,532993,167636,51.39218563,-0.08989903662,4,SE25 6LL
476,Seven Kings,545401,187095,51.56399351,0.09631957529,4,IG3 8RE
477,Seven Sisters,533646,188927,51.58336204,-0.07246682252,3,N15 5LA
478,Shadwell,534936,180942,51.51130006,-0.05691920694,2,E1 2QE
479,Shenfield,561356,195022,51.63087364,0.3299522708,7,CM15 8JD
480,Shepherd's Bush,523741,179904,51.5045318,-0.2185191567,2,W12 8LH
481,Shepherd's Bush Market,523121,180039,51.50588034,-0.2274004904,2,W12 7JD
482,Shoreditch High Street,533501,182258,51.5234667,-0.07708742433,1,E1 6AW
483,Shortlands,539399,169300,51.40560237,0.00276754439,4,BR2 0JA
484,Sidcup,546300,172698,51.43439863,0.1033153597,5,DA15 7AW
485,Silver Street,533544,192472,51.61524236,-0.07258974126,4,N18 1QX
486,Slade Green,552250,176584,51.46774797,0.1905183897,6,DA8 2NX
487,Sloane Square,528080,178657,51.49235951,-0.1564888561,1,SW1W 8BB
488,Slough,497838,180157,51.51187888,-0.5915248253,,SL1 1XW
489,Snaresbrook,540161,188828,51.58089131,0.02146392781,4,E11 1QE
490,South Acton,520166,179279,51.49968539,-0.2702152033,3,W3 0DS
491,South Bermondsey,535156,178319,51.48767653,-0.05475482107,2,SE16 2PL
492,South Croydon,532896,164358,51.36275005,-0.09251736279,5,CR2 7PA
493,South Ealing,517605,179437,51.50164352,-0.3070402395,3,W5 4QB
494,South Greenford,515462,182991,51.53402701,-0.3367374754,4,UB6 2WE
495,South Hampstead,526425,184081,51.54147656,-0.1783711981,2,NW8 0DJ
496,South Harrow,514334,186376,51.56467959,-0.3518939637,5,HA2 8HN
497,South Kensington,526865,178817,51.49407108,-0.1739230213,1,SW7 2NB
498,South Kenton,517350,187153,51.57104395,-0.3081429718,4,HA9 8QT
499,South Merton,524917,168662,51.40324022,-0.2055502989,4,SW20 9JT
500,South Quay,537636,179853,51.50086358,-0.01846069267,2,E14 9SH
501,South Ruislip,511080,185437,51.55688965,-0.399115901,5,HA4 6TP
502,South Tottenham,533697,188599,51.58040247,-0.07185595631,3,N15 6ND
503,South Wimbledon,525828,170033,51.4153604,-0.1919745441,"3,4",SW19 1DE
504,South Woodford,540577,190026,51.59155266,0.02794307837,4,E18 1JJ
505,Southall,512620,179804,51.50595629,-0.3787111814,4,UB2 4AA
506,Southbury,534803,196199,51.64843364,-0.0529833104,5,EN3 4HW
507,Southfields,524730,173291,51.44488298,-0.2066093831,3,SW18 5RJ
508,Southgate,529675,194278,51.63237564,-0.1277700463,4,N14 5BH
509,Southwark,531566,180025,51.50385345,-0.1057949389,1,SE1 8NW
510,St Helier,525408,167191,51.38991184,-0.1990145897,4,SM4 6SF
511,St James Street,536402,188694,51.58060861,-0.03280456168,3,E17 7PJ
512,St Johns,537400,176298,51.46897526,-0.02324066181,2,SE8 4EW
513,St Margarets,516732,174250,51.45520547,-0.3213242419,4,TW1 2LH
514,St Mary Cray,546698,168298,51.39475959,0.1072179002,6,BR5 3SN
515,St Pancras,530122,182959,51.5305542,-0.1255057811,1,NW1 2QP
516,St. James's Park,529629,179503,51.49960958,-0.1338787543,1,SW1H 0BD
517,St. Johns Wood,526742,183352,51.53485413,-0.1740648387,2,NW8 6DN
518,St. Pauls,532105,181261,51.51483514,-0.09757100012,1,EC2V 6AA
519,Stamford Brook,521913,178738,51.49444957,-0.245246306,2,W6 0SB
520,Stamford Hill,533381,187928,51.57444748,-0.07666834157,3,N16 5AG
521,Stanmore,517574,192569,51.61967295,-0.3030992876,5,HA7 4PD
522,Star Lane,539148,182091,51.52060426,0.004191002628,3,E16 4SR
523,Stepney Green,535566,182149,51.52199576,-0.04738252319,2,E1 4AQ
524,Stockwell,530473,176470,51.47215906,-0.1228463034,2,SW9 9AE
525,Stoke Newington,533710,186845,51.56463749,-0.07233539438,2,N16 6YA
526,Stonebridge Park,519690,184197,51.54398611,-0.2754004371,3,NW10 0RW
527,Stoneleigh,522021,164155,51.36336365,-0.2487096535,5,KT17 2JA
528,Stratford,538533,184421,51.54169258,-0.003751641027,3,E15 1AZ
529,Stratford High Street,538729,184032,51.53814895,-0.001080356004,3,E15 3PA
530,Stratford International,538175,184758,51.54480852,-0.008778434013,3,E15 2LZ
531,Strawberry Hill,515500,172502,51.43974728,-0.3396177244,5,TW1 4PP
532,Streatham,529946,171303,51.42584565,-0.1323254957,3,SW16 6HP
533,Streatham Common,529729,170534,51.41898445,-0.135726164,3,SW16 5NT
534,Streatham Hill,530233,172714,51.43846016,-0.1276814805,3,SW2 4PA
535,Sudbury and Harrow Road,516853,185300,51.55449327,-0.3159262359,4,HA0 2HA
536,Sudbury Hill,515427,185584,51.55733901,-0.3363921085,4,HA1 3RA
537,Sudbury Hill Harrow,515490,185697,51.55834173,-0.3354466866,4,HA1 3RJ
538,Sudbury Town,516832,184955,51.55139693,-0.3163434799,4,HA0 2LA
539,Sundridge Park,540599,170200,51.41339384,0.02036510903,4,BR1 3TR
540,Surbiton,518070,167315,51.39259904,-0.3043845544,6,KT6 4PE
541,Surrey Quays,535641,178954,51.49326678,-0.04752998753,2,SE16 2UE
542,Sutton,526028,163823,51.35950582,-0.191302009,5,SM1 1JA
543,Sutton Common,525593,165598,51.37555437,-0.1969199101,4,SM1 3HY
544,Swiss Cottage,526611,184259,51.54303456,-0.1756266026,2,NW3 6HY
545,Sydenham,535311,171609,51.42734116,-0.05508867076,3,SE26 5EU
546,Sydenham Hill,533548,172145,51.43257576,-0.08023020751,3,SE21 7HW
547,Syon Lane,516306,177163,51.48147416,-0.3264950284,4,TW7 5NT
548,Tadworth,523097,156199,51.29162748,-0.2360080126,6,KT20 5SP
549,Taplow,491579,181340,51.52356084,-0.6813848514,,SL6 0NU
550,Tattenham Corner,522593,158140,51.30918092,-0.2425662694,6,KT18 5PR
551,Teddington,516019,170817,51.42449695,-0.3327053306,6,TW11 9AA
552,Temple,530995,180810,51.51104042,-0.1137257495,1,WC2R 2PH
553,Thames Ditton,515721,166818,51.38861552,-0.338292831,6,KT7 0PA
554,Theobalds Grove,535933,201119,51.69237253,-0.03474813434,7,EN8 7BG
555,Therapia Lane,530290,166843,51.38568558,-0.1290171059,"3,4,5,6",CR0 3DD
556,Theydon Bois,545509,199180,51.67255225,0.1028907369,6,CM16 7EU
557,Thornton Heath,532242,168317,51.39848092,-0.1004331645,4,CR7 8RX
558,Tolworth,519834,165603,51.37684286,-0.2796201104,5,KT5 9NU
559,Tooting,527969,170591,51.41989637,-0.1610024706,3,SW17 9JR
560,Tooting Bec,528015,172366,51.4358378,-0.1597004908,3,SW17 9AH
561,Tooting Broadway,527415,171373,51.42704887,-0.1686845258,3,SW17 0SU
562,Tottenham Court Road,529774,181354,51.51621066,-0.1311104379,1,W1D 2DA
563,Tottenham Hale,534483,189465,51.58799768,-0.06018782249,3,N17 9LR
564,Totteridge and Whetstone,526111,193951,51.63024643,-0.1793542612,4,N20 9QP
565,Tower Gateway,533725,180809,51.51039252,-0.07440987691,1,EC3N 1JL
566,Tower Hill,533566,180805,51.51039415,-0.07670119812,1,EC3N 4DJ
567,Tufnell Park,529200,185816,51.55644058,-0.1377421741,2,N19 5QB
568,Tulse Hill,531797,172903,51.43979726,-0.1051225085,3,SE27 9BW
569,Turkey Street,535129,198903,51.67265359,-0.04722993123,6,EN3 5TT
570,Turnham Green,521267,178804,51.49518153,-0.2545245643,2,W4 1LR
571,Turnpike Lane,531524,189650,51.59035797,-0.1028050406,3,N15 3NX
572,Twickenham,516221,173687,51.45025041,-0.3288602201,5,TW1 1BD
573,Twyford,479041,175787,51.47553253,-0.863306993,,RG10 9NA
574,Upminster,556167,186833,51.55876377,0.2514008048,6,RM14 2TD
575,Upminster Bridge,555002,186681,51.55771919,0.2345418919,6,RM12 6PL
576,Upney,545844,184260,51.53840582,0.1015317447,4,IG11 9LS
577,Upper Holloway,529778,186630,51.5636231,-0.1291093627,2,N19 4DJ
578,Upper Warlingham,534100,158383,51.30877213,-0.07748166157,6,CR3 0EP
579,Upton Park,541204,183931,51.53662826,0.03454183972,3,E13 9AP
580,Uxbridge,505698,184161,51.54645373,-0.4771015464,6,UB8 1JZ
581,Vauxhall,530366,177978,51.4857356,-0.123829952,"1,2",SW8 1SR
582,Victoria,528941,179131,51.49642372,-0.1439207051,1,SW1E 5JX
583,Waddon,531151,164828,51.36737907,-0.1173940758,5,CR0 4NA
584,Waddon Marsh,531082,165906,51.37708276,-0.1179874641,"3,4,5,6",CR0 4XT
585,Wallington,528841,163985,51.3603313,-0.1508638338,5,SM6 0DZ
586,Waltham Cross,536520,200343,51.68525722,-0.02656425721,7,EN8 7LU
587,Walthamstow Central,537286,188986,51.58301808,-0.01994054501,3,E17 7LP
588,Walthamstow Queens Road,537020,188815,51.58154616,-0.0238439433,3,E17 7QZ
589,Wandle Park,531422,165505,51.37340053,-0.1132533204,"3,4,5,6",CR0 4JS
590,Wandsworth Common,527719,173530,51.44636534,-0.1635369794,3,SW12 8NL
591,Wandsworth Road,529354,176226,51.47022298,-0.1390376746,2,SW8 4PA
592,Wandsworth Town,525985,175119,51.46103377,-0.1879100357,2,SW18 1SU
593,Wanstead,540685,188176,51.5749022,0.02876047244,4,E11 2NT
594,Wanstead Park,540592,185600,51.55177812,0.02638994305,3,E7 0HU
595,Wapping,535030,180170,51.50434023,-0.05586081436,2,E1W 3PA
596,Warren Street,529253,182272,51.52457976,-0.1382783305,1,NW1 3AA
597,Warwick Avenue,526158,182030,51.52310414,-0.1829532911,2,W9 2PT
598,Waterloo,531050,179933,51.50314646,-0.1132592513,1,SE1 7NY
599,Waterloo East,531332,180054,51.50416843,-0.1091536369,1,SE1 8NH
600,Watford,509579,196610,51.65760442,-0.4172699967,7,WD18 7LE
601,Watford High Street,511360,196098,51.65265307,-0.3916967204,8,WD17 2EG
602,Watford Junction,511023,197340,51.66388237,-0.396171948,,WD17 1ET
603,Wellesley Road,532511,165752,51.37536738,-0.09752490809,"3,4,5,6",CR0 2DD
604,Welling,546096,176073,51.46477726,0.1017750391,4,DA16 3AT
605,Wembley Central,518214,185039,51.5518643,-0.2963923219,4,HA9 6AG
606,Wembley Park,519373,186341,51.563322,-0.2792425481,4,HA9 9AA
607,Wembley Stadium,518924,185366,51.5546541,-0.286046442,4,HA9 8BQ
608,West Acton,519394,181273,51.51776969,-0.2806571709,3,W3 6UP
609,West Brompton,525383,178030,51.4873286,-0.1955388097,2,SW5 9JX
610,West Croydon,532188,166098,51.37855201,-0.1020342923,5,CR0 2TA
611,West Drayton,506124,180122,51.51007045,-0.4721760839,6,UB7 9DY
612,West Dulwich,532798,173053,51.44091168,-0.09067267592,3,SE21 8HN
613,West Ealing,516690,180749,51.51362468,-0.3197829487,3,W13 0NQ
614,West Finchley,525507,191601,51.60926242,-0.1889171075,4,N3 1NT
615,West Ham,539202,182974,51.52852553,0.005317393833,3,E15 3BN
616,West Hampstead,525524,184726,51.54747402,-0.1911265834,2,NW6 2LX
617,West Hampstead Thameslink,525423,184852,51.54862881,-0.1925375176,2,NW6 1XJ
618,West Harrow,514163,187957,51.57892366,-0.3538466899,5,HA1 4HE
619,West India Quay,537471,180505,51.50676263,-0.02058244713,2,E14 4ED
620,West Kensington,524635,178321,51.49010903,-0.2062036922,2,W14 9NL
621,West Norwood,531956,171955,51.43124095,-0.1031891343,3,SE27 0HS
622,West Ruislip,508364,186791,51.56958716,-0.4378601344,6,HA4 7WD
623,West Silvertown,540455,180155,51.50288447,0.02224604668,3,E16 2AT
624,West Sutton,525081,164539,51.3661498,-0.204644546,5,SM1 2EH
625,West Wickham,538266,166563,51.38128418,-0.01457633041,5,BR4 0PY
626,Westbourne Park,524920,181764,51.52098851,-0.2008825128,2,W11 1AB
627,Westcombe Park,540199,178103,51.48450893,0.01774570026,3,SE3 7EQ
628,Westferry,537064,180814,51.50963811,-0.0263231371,2,E14 8AD
629,Westminster,530240,179718,51.50140139,-0.1250020783,1,SW1A 2JR
630,White City,523296,180750,51.51223207,-0.2246319285,2,W12 7RH
631,White Hart Lane,533693,191340,51.60503466,-0.07087032654,3,N17 7RP
632,Whitechapel,534738,181859,51.51958769,-0.05942048499,2,E1 1BY
633,Whitton,514220,173568,51.44958761,-0.3576820534,5,TW2 7LG
634,Whyteleafe,533842,158505,51.30992919,-0.08113516501,6,CR3 0AD
635,Whyteleafe South,534169,157797,51.30348968,-0.07671251441,6,CR3 0BD
636,Willesden Green,523350,184884,51.54937292,-0.2224076012,"2,3",NW2 4QT
637,Willesden Junction,521905,182942,51.53223357,-0.2439091398,3,NW10 4RA
638,Wimbledon,524791,170647,51.42110751,-0.2066628334,3,SW19 1PS
639,Wimbledon Chase,524306,169347,51.40953058,-0.2140897671,3,SW20 8DB
640,Wimbledon Park,525274,172158,51.43458063,-0.199186273,3,SW19 7DZ
641,Winchmore Hill,531529,194494,51.6338867,-0.1009169327,4,N21 3NG
642,Wood Green,531038,190427,51.59745355,-0.1095265888,3,N22 8HH
643,Wood Lane,523314,180464,51.50965783,-0.2244726057,2,W12 7DS
644,Wood Street,538521,189426,51.58666994,-0.001953898013,4,E17 3NZ
645,Woodford,540952,191778,51.6072019,0.03405620242,4,IG8 7QE
646,Woodgrange Park,541861,185332,51.54905261,0.04457249623,"3,4",E7 8AA
647,Woodmansterne,528720,159385,51.31901833,-0.1542621272,6,CR5 3HS
648,Woodside,534716,167115,51.38709758,-0.06534717786,"3,4,5,6",SE25 5DP
649,Woodside Park,525725,192564,51.6178681,-0.1854255027,4,N12 8SE
650,Woolwich,543931,178994,51.4915785,0.07181937853,4,
651,Woolwich Arsenal,543754,178803,51.48990723,0.06919390669,4,SE18 6HX
652,Woolwich Dockyard,542738,178908,51.49110789,0.05461234849,3,SE18 5JY
653,Worcester Park,522192,166133,51.38110409,-0.2455752883,4,KT4 7ND
654,Barking Riverside,544405,184343,51.5195582,0.1160126,4,IG11 0BF